{
    "persons" : [
      {
          "name": "Cruz Nunez",
          "city": "Celaya",
          "state": "Guanajuato",
          "country": "Mexico",
          "language1": "English",
          "language2": "Spanish",
          "language3": "French",
          "latitude": "",
          "longitude": ""
        },
      {
        "name": "Asiya Bykova",
        "city": "",
        "state": "Minsko",
        "country": "Belarus",
        "language1": "English",
        "language2": "Russian",
        "language3": "",
        "latitude": "",
        "longitude": ""
      },
      {
        "name": "Crystal Williams-Brown",
        "city": "Clifford",
        "state": "New Jersey",
        "country": "United States",
        "language1": "English",
        "language2": "",
        "language3": "",
        "latitude": "",
        "longitude": ""
      },
      {
        "name": "Lennda Chen",
        "city": "Fuzhou",
        "state": "Fujian",
        "country": "China",
        "language1": "English",
        "language2": "Mandrian",
        "language3": "Fuzhounese",
        "latitude": "",
        "longitude": ""
        
    },
    {
        "name": "Chuck Anderson",
        "city": "Smithtown",
        "state": "New York",
        "country": "United States",
        "language1": "English",
        "language2": "Russian",
        "language3": "",
        "latitude": "",
        "longitude": ""
    },
    {
        "name": "Aster Ghebreyesus",
        "city": "Asmara",
        "state": "",
        "country": "Eritrea",
        "language1": "English",
        "language2": "Tigrigina",
        "language3": "",
        "latitude": "",
        "longitude": ""
},
{
        "name": "Petra Holesinska",
        "city": "Vracov",
        "state": "",
        "country": "Czech Republic",
        "language1": "English",
        "language2": "Czech",
        "language3": "",
        "latitude": "",
        "longitude": ""
    
},
{
      "name": "Sadric Bonner",
      "city": "Greensboro",
      "state": "North Carolina",
      "country": "United State",
      "language1": "English",
      "language2": "",
      "language3": "",
      "latitude": "36.058814",
      "longitude": "-79.793900"
},

 ]}





    
  

 